[
  {
    "employer": {
      "name": "Chugach Training & Educational Solutions, LLC (CTESL)",
      "address": null
    },
    "location": {
      "street": null,
      "municipality": "Palmer",
      "state": "ak",
      "zip": null
    },
    "union": null,
    "contact": null,
    "warn_date": "2025-06-02",
    "layoff_date": "2025-06-30",
    "type": null,
    "impacted": 110,
    "notes": "Loss of Contract",
    "link": "https://jobs.alaska.gov/RR/notices/Job_Corps_WARN_-_Alaska_SDWU_-_June_2025.pdf"
  },
  {
    "employer": {
      "name": "Vigor Alaska, LLC",
      "address": null
    },
    "location": {
      "street": null,
      "municipality": "Ketchikan",
      "state": "ak",
      "zip": null
    },
    "union": null,
    "contact": null,
    "warn_date": "2025-05-07",
    "layoff_date": null,
    "type": "Closure",
    "impacted": 72,
    "notes": "Closure",
    "link": "https://jobs.alaska.gov/RR/notices/Vigor_Alaska_LLC_-_WARN_Government_Letter_-_Alaska_Rapid_Response_-_May_7_2025.pdf"
  },
  {
    "employer": {
      "name": "Natural Fiber Welding, Inc.",
      "address": null
    },
    "location": {
      "street": null,
      "municipality": "Anchorage",
      "state": "ak",
      "zip": null
    },
    "union": null,
    "contact": null,
    "warn_date": "2024-12-10",
    "layoff_date": "2025-02-08",
    "type": "PermanentLayoff",
    "impacted": 1,
    "notes": "Layoff",
    "link": "https://jobs.alaska.gov/RR/notices/Natural_Fiber_Welding_Inc_WARN_Notice_Dec2024_.pdf"
  },
  {
    "employer": {
      "name": "American Nursery Services, Inc.",
      "address": null
    },
    "location": {
      "street": null,
      "municipality": "Anchorage",
      "state": "ak",
      "zip": null
    },
    "union": null,
    "contact": null,
    "warn_date": "2023-09-05",
    "layoff_date": "2023-12-31",
    "type": "Closure",
    "impacted": null,
    "notes": "Closure",
    "link": "https://jobs.alaska.gov/RR/notices/American_Nursery_Services_Inc-_Letter.pdf"
  },
  {
    "employer": {
      "name": "Centerra",
      "address": null
    },
    "location": {
      "street": null,
      "municipality": "Anchorage, Juneau, and Fairbanks",
      "state": "ak",
      "zip": null
    },
    "union": null,
    "contact": null,
    "warn_date": "2023-08-10",
    "layoff_date": "2023-09-30",
    "type": null,
    "impacted": 27,
    "notes": "Loss of Contract",
    "link": "https://jobs.alaska.gov/RR/notices/Centerra_WARN_Notice_8-10-2023.pdf"
  },
  {
    "employer": {
      "name": "Technica LLC",
      "address": null
    },
    "location": {
      "street": null,
      "municipality": "Fort Wainwright and Joint Base Elmendorf-Richardson (JBER)",
      "state": "ak",
      "zip": null
    },
    "union": null,
    "contact": null,
    "warn_date": "2023-07-05",
    "layoff_date": "2023-09-06",
    "type": null,
    "impacted": 101,
    "notes": "Loss of Contract",
    "link": "https://jobs.alaska.gov/RR/notices/Technica_LLC_WARN_notice_07-05-2023.pdf"
  },
  {
    "employer": {
      "name": "David's Bridal",
      "address": null
    },
    "location": {
      "street": null,
      "municipality": "Anchorage",
      "state": "ak",
      "zip": null
    },
    "union": null,
    "contact": null,
    "warn_date": "2023-04-14",
    "layoff_date": null,
    "type": "Closure",
    "impacted": null,
    "notes": "Store Closure",
    "link": "https://jobs.alaska.gov/RR/notices/Davids_Bridal_WARN_Gov_Entity_LR_4-14-23.pdf"
  },
  {
    "employer": {
      "name": "First Student",
      "address": null
    },
    "location": {
      "street": null,
      "municipality": "Matanuska-Susitna Borough",
      "state": "ak",
      "zip": null
    },
    "union": null,
    "contact": null,
    "warn_date": "2022-05-02",
    "layoff_date": "2022-06-30",
    "type": null,
    "impacted": 182,
    "notes": "Loss of contract",
    "link": "https://jobs.alaska.gov/RR/notices/First_Student_Mat-Su_5-2-22.pdf"
  },
  {
    "employer": {
      "name": "Bean\u2019s Cafe",
      "address": null
    },
    "location": {
      "street": null,
      "municipality": "Anchorage",
      "state": "ak",
      "zip": null
    },
    "union": null,
    "contact": null,
    "warn_date": "2021-09-16",
    "layoff_date": "2021-09-15",
    "type": null,
    "impacted": 40,
    "notes": "Loss of contract",
    "link": "https://jobs.alaska.gov/RR/notices/Beans_Cafe_WARN_Notice_Recd_email_9-16-21.pdf"
  },
  {
    "employer": {
      "name": "Kakivik Asset Mgmt",
      "address": null
    },
    "location": {
      "street": null,
      "municipality": "Prudhoe Bay",
      "state": "ak",
      "zip": null
    },
    "union": null,
    "contact": null,
    "warn_date": "2021-07-02",
    "layoff_date": "2021-08-31",
    "type": null,
    "impacted": 134,
    "notes": "Loss of Contract",
    "link": "https://jobs.alaska.gov/RR/notices/Kakivik_WARN_Letter_to_RR_Coordinators.pdf"
  },
  {
    "employer": {
      "name": "First Student",
      "address": null
    },
    "location": {
      "street": null,
      "municipality": "Fairbanks, North Pole",
      "state": "ak",
      "zip": null
    },
    "union": null,
    "contact": null,
    "warn_date": "2021-04-30",
    "layoff_date": "2021-06-30",
    "type": null,
    "impacted": 185,
    "notes": "Loss of contract",
    "link": "https://jobs.alaska.gov/RR/notices/First_Student_WARN_Notice_4-30-21.pdf"
  },
  {
    "employer": {
      "name": "GCI Communication Group",
      "address": null
    },
    "location": {
      "street": null,
      "municipality": "Anchorage",
      "state": "ak",
      "zip": null
    },
    "union": null,
    "contact": null,
    "warn_date": "2021-04-12",
    "layoff_date": null,
    "type": "PermanentLayoff",
    "impacted": 59,
    "notes": "Business need changes/reorganization; permanent",
    "link": "https://jobs.alaska.gov/RR/notices/GCI_WARN%20Notice_4-12-21.pdf"
  },
  {
    "employer": {
      "name": "RavnAir Group, Corvus Airlines, Hageland Aviation Services and Peninsula Aviation Services",
      "address": null
    },
    "location": {
      "street": null,
      "municipality": "Anchorage and 20 smaller Alaska communities, plus Boston, Mass.",
      "state": "ak",
      "zip": null
    },
    "union": null,
    "contact": null,
    "warn_date": null,
    "layoff_date": "2020-08-07",
    "type": "PermanentLayoff",
    "impacted": 1234,
    "notes": "COVID-19; permanent",
    "link": "https://jobs.alaska.gov/RR/notices/RavnAir_Group_Postmked_9-30-20_lttr_dted_8-7-20.pdf"
  },
  {
    "employer": {
      "name": "HMSHost \u2013 Ted Stevens Anchorage International Airport restaurants: Starbucks, Humpy\u2019s Great Alaskan Alehouse, Norton Sound Seafood House, Cinnabon, Alaska Doghaus, Cream, Upper One Restaurant/Lounge, Mezzanine Bar, Anchorage Marketplace and Local Alaska Rustic Marketplace",
      "address": null
    },
    "location": {
      "street": null,
      "municipality": "Anchorage",
      "state": "ak",
      "zip": null
    },
    "union": null,
    "contact": null,
    "warn_date": "2020-08-12",
    "layoff_date": "2020-10-15",
    "type": "PermanentLayoff",
    "impacted": 123,
    "notes": "COVID-19; permanent",
    "link": "https://jobs.alaska.gov/RR/notices/WARN_HMSHost_Anchorage_8-12-20.pdf"
  },
  {
    "employer": {
      "name": "HMSHost \u2013 Fairbanks International Airport restaurants: The Local and Starbucks",
      "address": null
    },
    "location": {
      "street": null,
      "municipality": "Fairbanks",
      "state": "ak",
      "zip": null
    },
    "union": null,
    "contact": null,
    "warn_date": "2020-08-12",
    "layoff_date": "2020-10-15",
    "type": "PermanentLayoff",
    "impacted": 19,
    "notes": "COVID-19; permanent",
    "link": "https://jobs.alaska.gov/RR/notices/WARN_HMSHost_Fairbanks_8-12-20.pdf"
  },
  {
    "employer": {
      "name": "Chenega Security and Support Solutions LLC",
      "address": null
    },
    "location": {
      "street": null,
      "municipality": "Shemya Island",
      "state": "ak",
      "zip": null
    },
    "union": null,
    "contact": null,
    "warn_date": "2020-07-31",
    "layoff_date": "2020-09-30",
    "type": null,
    "impacted": 64,
    "notes": null,
    "link": "https://jobs.alaska.gov/RR/notices/Chenega_7-31-20.pdf"
  },
  {
    "employer": {
      "name": "Alaska Airlines",
      "address": null
    },
    "location": {
      "street": null,
      "municipality": "Anchorage",
      "state": "ak",
      "zip": null
    },
    "union": null,
    "contact": null,
    "warn_date": "2020-07-31",
    "layoff_date": "2020-10-01",
    "type": "PermanentLayoff",
    "impacted": 331,
    "notes": "Permanent",
    "link": "https://jobs.alaska.gov/RR/notices/AK_Air_WARN_recd_7-31-20.pdf"
  },
  {
    "employer": {
      "name": "Holland America Group,  Carnival UK,  Westmark Hotels, Inc.,  Tour Alaska, Inc.,  Royal Hyway Tours, Inc.,  Anchorage Westmark Hotel,  Escorted Tour Operations,  Anchorage Transportation,  Anchorage Rail Division,  Fairbanks Westmark Hotel,  Fairbanks Transportation,  Westmark McKinley Chalet Resort,  Denali Princess Wilderness Lodge,  Denali Transportation Division,  Healy Homestead",
      "address": null
    },
    "location": {
      "street": null,
      "municipality": "Anchorage,  Fairbanks,  Denali National Park and  Healy",
      "state": "ak",
      "zip": null
    },
    "union": null,
    "contact": null,
    "warn_date": "2020-05-19",
    "layoff_date": "2020-06-01",
    "type": "TemporaryLayoff",
    "impacted": 149,
    "notes": "COVID-19; temporary",
    "link": "https://jobs.alaska.gov/RR/notices/Westmark_Hotels_Denali_Princess_Lodge_et_al_5-19-20.pdf"
  },
  {
    "employer": {
      "name": "Doyon Drilling Inc.",
      "address": null
    },
    "location": {
      "street": null,
      "municipality": "North Slope",
      "state": "ak",
      "zip": null
    },
    "union": null,
    "contact": null,
    "warn_date": "2020-05-01",
    "layoff_date": null,
    "type": "PermanentLayoff",
    "impacted": 304,
    "notes": "COVID-19; permanent",
    "link": "https://jobs.alaska.gov/RR/notices/Doyon_Drilling_WARN_5-1-20_No_2_304_total.pdf"
  },
  {
    "employer": {
      "name": "Yukon-Kuskokwim Health Corporation",
      "address": null
    },
    "location": {
      "street": null,
      "municipality": "Bethel and other Y-K Delta communities",
      "state": "ak",
      "zip": null
    },
    "union": null,
    "contact": null,
    "warn_date": "2020-04-28",
    "layoff_date": null,
    "type": "PermanentLayoff",
    "impacted": 300,
    "notes": "COVID-19; permanent",
    "link": "https://jobs.alaska.gov/RR/notices/Yukon_Kuskokwim_Health_Corp_4-28-20.pdf"
  },
  {
    "employer": {
      "name": "Hard Rock Cafe International STP",
      "address": null
    },
    "location": {
      "street": null,
      "municipality": "Anchorage",
      "state": "ak",
      "zip": null
    },
    "union": null,
    "contact": null,
    "warn_date": "2020-04-27",
    "layoff_date": null,
    "type": "TemporaryLayoff",
    "impacted": 54,
    "notes": "COVID-19; temporary",
    "link": "https://jobs.alaska.gov/RR/notices/Hard_Rock_Cafe_WARN_4-27-20.pdf"
  },
  {
    "employer": {
      "name": "Baker Hughes",
      "address": null
    },
    "location": {
      "street": null,
      "municipality": "North Slope",
      "state": "ak",
      "zip": null
    },
    "union": null,
    "contact": null,
    "warn_date": "2020-04-27",
    "layoff_date": null,
    "type": null,
    "impacted": 63,
    "notes": "COVID-19",
    "link": "https://jobs.alaska.gov/RR/notices/Baker_Hughes_WARN_4-27-20.pdf"
  },
  {
    "employer": {
      "name": "Schlumberger Technology Corp.",
      "address": null
    },
    "location": {
      "street": null,
      "municipality": "North Slope",
      "state": "ak",
      "zip": null
    },
    "union": null,
    "contact": null,
    "warn_date": "2020-04-22",
    "layoff_date": null,
    "type": null,
    "impacted": 129,
    "notes": "COVID-19",
    "link": "https://jobs.alaska.gov/RR/notices/WARN_Schlumberger_fr_FBorowski_Amend_6-22-20.pdf"
  },
  {
    "employer": {
      "name": "Halliburton Energy Services",
      "address": null
    },
    "location": {
      "street": null,
      "municipality": "Prudhoe Bay",
      "state": "ak",
      "zip": null
    },
    "union": null,
    "contact": null,
    "warn_date": "2020-04-20",
    "layoff_date": "2020-04-20",
    "type": null,
    "impacted": 80,
    "notes": null,
    "link": "https://jobs.alaska.gov/RR/notices/Halliburton_Energy_Services_WARN_4-20-20_5-5-20.pdf"
  },
  {
    "employer": {
      "name": "Crush Bistro",
      "address": null
    },
    "location": {
      "street": null,
      "municipality": "Anchorage",
      "state": "ak",
      "zip": null
    },
    "union": null,
    "contact": null,
    "warn_date": "2020-04-02",
    "layoff_date": "2020-04-17",
    "type": null,
    "impacted": 24,
    "notes": "COVID-19",
    "link": "https://jobs.alaska.gov/RR/notices/Crush_Bistro_4-2-20.pdf"
  },
  {
    "employer": {
      "name": "South Restaurant & Coffeehouse",
      "address": null
    },
    "location": {
      "street": null,
      "municipality": "Anchorage",
      "state": "ak",
      "zip": null
    },
    "union": null,
    "contact": null,
    "warn_date": "2020-04-02",
    "layoff_date": "2020-04-17",
    "type": null,
    "impacted": 82,
    "notes": "COVID-19",
    "link": "https://jobs.alaska.gov/RR/notices/South_Restaurant_Coffee_House_4-2-20.pdf"
  },
  {
    "employer": {
      "name": "Snow City Caf\u00e9",
      "address": null
    },
    "location": {
      "street": null,
      "municipality": "Anchorage",
      "state": "ak",
      "zip": null
    },
    "union": null,
    "contact": null,
    "warn_date": "2020-04-02",
    "layoff_date": "2020-04-17",
    "type": null,
    "impacted": 37,
    "notes": "COVID-19",
    "link": "https://jobs.alaska.gov/RR/notices/Snow_City_Cafe_4-2-20.pdf"
  },
  {
    "employer": {
      "name": "Benihana",
      "address": null
    },
    "location": {
      "street": null,
      "municipality": "Anchorage",
      "state": "ak",
      "zip": null
    },
    "union": null,
    "contact": null,
    "warn_date": "2020-04-02",
    "layoff_date": "2020-04-16",
    "type": null,
    "impacted": 68,
    "notes": "COVID-19",
    "link": "https://jobs.alaska.gov/RR/notices/Benihana_Anchorage_4-2-20.PDF"
  },
  {
    "employer": {
      "name": "Peak Oilfield Services",
      "address": null
    },
    "location": {
      "street": null,
      "municipality": "North Slope, Kenai Peninsula, And Valdez",
      "state": "ak",
      "zip": null
    },
    "union": null,
    "contact": null,
    "warn_date": "2020-04-01",
    "layoff_date": null,
    "type": null,
    "impacted": 161,
    "notes": "COVID-19",
    "link": "https://jobs.alaska.gov/RR/notices/Peak_Oilfield_Services_WARN_4-1-20_and_3-30.pdf"
  },
  {
    "employer": {
      "name": "Spenard Roadhouse",
      "address": null
    },
    "location": {
      "street": null,
      "municipality": "Anchorage",
      "state": "ak",
      "zip": null
    },
    "union": null,
    "contact": null,
    "warn_date": "2020-04-01",
    "layoff_date": "2020-04-17",
    "type": null,
    "impacted": 77,
    "notes": "COVID-19",
    "link": "https://jobs.alaska.gov/RR/notices/Spenard_Roadhouse_4-1-20.pdf"
  },
  {
    "employer": {
      "name": "Westmark Anchorage",
      "address": null
    },
    "location": {
      "street": null,
      "municipality": "Anchorage",
      "state": "ak",
      "zip": null
    },
    "union": null,
    "contact": null,
    "warn_date": "2020-03-25",
    "layoff_date": "2020-03-25",
    "type": "TemporaryLayoff",
    "impacted": 37,
    "notes": "COVID-19; temporary",
    "link": "https://jobs.alaska.gov/RR/notices/Westmark_Anchorage_WARN_wo_names_w_ee_lttr_3-25-20.pdf"
  },
  {
    "employer": {
      "name": "Alsco",
      "address": null
    },
    "location": {
      "street": null,
      "municipality": "Anchorage",
      "state": "ak",
      "zip": null
    },
    "union": null,
    "contact": null,
    "warn_date": "2020-03-25",
    "layoff_date": "2020-03-25",
    "type": "TemporaryLayoff",
    "impacted": 21,
    "notes": "COVID-19; temporary",
    "link": "https://jobs.alaska.gov/RR/notices/Alsco_WARN_and_attchmt_3-25-20.pdf"
  },
  {
    "employer": {
      "name": "Alyeska Resort",
      "address": null
    },
    "location": {
      "street": null,
      "municipality": "Girdwood",
      "state": "ak",
      "zip": null
    },
    "union": null,
    "contact": null,
    "warn_date": "2020-03-18",
    "layoff_date": "2020-03-19",
    "type": null,
    "impacted": 616,
    "notes": "COVID-19",
    "link": "https://jobs.alaska.gov/RR/notices/Alyeska_Resort_WARN_3-24-20.pdf"
  },
  {
    "employer": {
      "name": "British Petroleum",
      "address": null
    },
    "location": {
      "street": null,
      "municipality": "North Slope",
      "state": "ak",
      "zip": null
    },
    "union": null,
    "contact": null,
    "warn_date": "2019-12-19",
    "layoff_date": "2020-02-20",
    "type": null,
    "impacted": 345,
    "notes": "Sale of business",
    "link": "https://jobs.alaska.gov/RR/notices/BP_WARN_North_Slope.pdf"
  },
  {
    "employer": {
      "name": "British Petroleum",
      "address": null
    },
    "location": {
      "street": null,
      "municipality": "Anchorage",
      "state": "ak",
      "zip": null
    },
    "union": null,
    "contact": null,
    "warn_date": "2019-12-19",
    "layoff_date": "2020-02-20",
    "type": null,
    "impacted": 287,
    "notes": "Sale of business",
    "link": "https://jobs.alaska.gov/RR/notices/BP_WARN_Anchorage.pdf"
  },
  {
    "employer": {
      "name": "AECOM",
      "address": null
    },
    "location": {
      "street": null,
      "municipality": "Eielson AFB",
      "state": "ak",
      "zip": null
    },
    "union": null,
    "contact": null,
    "warn_date": "2019-12-06",
    "layoff_date": "2020-01-04",
    "type": null,
    "impacted": 160,
    "notes": "End of contract",
    "link": "https://jobs.alaska.gov/RR/notices/AECOM_Eielson_AFB_Nov.2019.pdf"
  },
  {
    "employer": {
      "name": "Nordstrom Anchorage",
      "address": null
    },
    "location": {
      "street": null,
      "municipality": "Anchorage",
      "state": "ak",
      "zip": null
    },
    "union": null,
    "contact": null,
    "warn_date": "2019-06-26",
    "layoff_date": "2019-09-13",
    "type": "Closure",
    "impacted": 173,
    "notes": "Store closure",
    "link": "https://jobs.alaska.gov/RR/notices/Nordstrom_Anchorage_7.19.pdf"
  },
  {
    "employer": {
      "name": "Aleut O&M Services, LLC",
      "address": null
    },
    "location": {
      "street": null,
      "municipality": "Clear, AK",
      "state": "ak",
      "zip": null
    },
    "union": null,
    "contact": null,
    "warn_date": "2018-07-02",
    "layoff_date": "2018-08-31",
    "type": null,
    "impacted": 74,
    "notes": "Loss of contract",
    "link": null
  },
  {
    "employer": {
      "name": "BAE Systems",
      "address": null
    },
    "location": {
      "street": null,
      "municipality": "Clear, AK",
      "state": "ak",
      "zip": null
    },
    "union": null,
    "contact": null,
    "warn_date": "2018-06-25",
    "layoff_date": "2018-08-31",
    "type": null,
    "impacted": 101,
    "notes": "Loss of contract",
    "link": null
  },
  {
    "employer": {
      "name": "Mistras Group, Inc. and subsidiary Quality Services Laboratories Inc.",
      "address": null
    },
    "location": {
      "street": null,
      "municipality": "Prudhoe Bay/ Anchorage",
      "state": "ak",
      "zip": null
    },
    "union": null,
    "contact": null,
    "warn_date": "2018-01-23",
    "layoff_date": "2018-03-31",
    "type": null,
    "impacted": 261,
    "notes": "Loss of contract",
    "link": "https://jobs.alaska.gov/RR/notices/Mistras_Group_Inc._1.18.pdf"
  },
  {
    "employer": {
      "name": "Sam\u2019s Club",
      "address": null
    },
    "location": {
      "street": null,
      "municipality": "Fairbanks",
      "state": "ak",
      "zip": null
    },
    "union": null,
    "contact": null,
    "warn_date": "2018-01-11",
    "layoff_date": null,
    "type": "Closure",
    "impacted": 177,
    "notes": "Store closure",
    "link": "https://jobs.alaska.gov/RR/notices/Sams_Club_Fairbanks_WARN_1-11-18.pdf"
  },
  {
    "employer": {
      "name": "Sam\u2019s Club",
      "address": null
    },
    "location": {
      "street": null,
      "municipality": "Anchorage on Muldoon Road",
      "state": "ak",
      "zip": null
    },
    "union": null,
    "contact": null,
    "warn_date": "2018-01-11",
    "layoff_date": null,
    "type": "Closure",
    "impacted": 167,
    "notes": "Store closure",
    "link": "https://jobs.alaska.gov/RR/notices/Sams_Club_Anchorage_on_Muldoon_WARN_1-11-18.pdf"
  },
  {
    "employer": {
      "name": "Sam\u2019s Club",
      "address": null
    },
    "location": {
      "street": null,
      "municipality": "Anchorage on Old Seward Hwy.",
      "state": "ak",
      "zip": null
    },
    "union": null,
    "contact": null,
    "warn_date": "2018-01-11",
    "layoff_date": null,
    "type": "Closure",
    "impacted": 181,
    "notes": "Store closure",
    "link": "https://jobs.alaska.gov/RR/notices/Sams_Club_Anchorage_on_Old_Seward_WARN_1-11-18.pdf"
  },
  {
    "employer": {
      "name": "Sears Holdings",
      "address": null
    },
    "location": {
      "street": null,
      "municipality": "Anchorage",
      "state": "ak",
      "zip": null
    },
    "union": null,
    "contact": null,
    "warn_date": "2018-01-04",
    "layoff_date": null,
    "type": "Closure",
    "impacted": 67,
    "notes": "Store closure",
    "link": "https://jobs.alaska.gov/RR/notices/Sears_Holdings.pdf"
  },
  {
    "employer": {
      "name": "Kodiak Support Services, JV",
      "address": null
    },
    "location": {
      "street": null,
      "municipality": "Kodiak",
      "state": "ak",
      "zip": null
    },
    "union": null,
    "contact": null,
    "warn_date": "2017-11-30",
    "layoff_date": "2017-12-31",
    "type": null,
    "impacted": 125,
    "notes": "Loss of contract",
    "link": "https://jobs.alaska.gov/RR/notices/Kodiak_Support_Services.pdf"
  },
  {
    "employer": {
      "name": "ASRC Energy Services",
      "address": null
    },
    "location": {
      "street": null,
      "municipality": "Milne, Endicott, and Northstar on the North Slope",
      "state": "ak",
      "zip": null
    },
    "union": null,
    "contact": null,
    "warn_date": "2017-11-28",
    "layoff_date": null,
    "type": null,
    "impacted": 92,
    "notes": "Services terminated",
    "link": "https://jobs.alaska.gov/RR/notices/ASRC_Energy_Services_11-28-17.pdf"
  },
  {
    "employer": {
      "name": "Norcon",
      "address": null
    },
    "location": {
      "street": null,
      "municipality": "North Slope",
      "state": "ak",
      "zip": null
    },
    "union": null,
    "contact": null,
    "warn_date": "2017-05-12",
    "layoff_date": null,
    "type": null,
    "impacted": 147,
    "notes": "Loss of contract",
    "link": "https://jobs.alaska.gov/RR/notices/Norcon_Warn_05.2017.pdf"
  },
  {
    "employer": {
      "name": "First Student",
      "address": null
    },
    "location": {
      "street": null,
      "municipality": "Soldotna, Homer & Seward",
      "state": "ak",
      "zip": null
    },
    "union": null,
    "contact": null,
    "warn_date": "2017-04-19",
    "layoff_date": "2017-06-30",
    "type": null,
    "impacted": 149,
    "notes": "Loss of contract",
    "link": "https://jobs.alaska.gov/RR/notices/First_Student_WARN_4-19-17.pdf"
  },
  {
    "employer": {
      "name": "Parker Drilling",
      "address": null
    },
    "location": {
      "street": null,
      "municipality": "Anchorage/ North Slope",
      "state": "ak",
      "zip": null
    },
    "union": null,
    "contact": null,
    "warn_date": "2016-03-21",
    "layoff_date": null,
    "type": null,
    "impacted": 55,
    "notes": "Reduction in work",
    "link": "https://jobs.alaska.gov/RR/notices/Parker_Drilling_03.16.pdf"
  },
  {
    "employer": {
      "name": "CH2M",
      "address": null
    },
    "location": {
      "street": null,
      "municipality": "North Slope",
      "state": "ak",
      "zip": null
    },
    "union": null,
    "contact": null,
    "warn_date": "2016-03-17",
    "layoff_date": "2016-03-31",
    "type": null,
    "impacted": 58,
    "notes": "Loss of contract",
    "link": "https://jobs.alaska.gov/RR/notices/CH2M_WARN_notice.pdf"
  },
  {
    "employer": {
      "name": "Shell",
      "address": null
    },
    "location": {
      "street": null,
      "municipality": "Anchorage",
      "state": "ak",
      "zip": null
    },
    "union": null,
    "contact": null,
    "warn_date": "2016-01-27",
    "layoff_date": "2016-03-31",
    "type": null,
    "impacted": 75,
    "notes": "End of exploration",
    "link": "https://jobs.alaska.gov/RR/notices/Shell_01.16.pdf"
  },
  {
    "employer": {
      "name": "Walmart",
      "address": null
    },
    "location": {
      "street": null,
      "municipality": "Juneau",
      "state": "ak",
      "zip": null
    },
    "union": null,
    "contact": null,
    "warn_date": "2016-01-15",
    "layoff_date": "2016-04-15",
    "type": "Closure",
    "impacted": 168,
    "notes": "Store closure",
    "link": "https://jobs.alaska.gov/RR/notices/Walmart_01.16.pdf"
  },
  {
    "employer": {
      "name": "ASRC Energy Services",
      "address": null
    },
    "location": {
      "street": null,
      "municipality": "Statewide",
      "state": "ak",
      "zip": null
    },
    "union": null,
    "contact": null,
    "warn_date": "2015-11-10",
    "layoff_date": null,
    "type": null,
    "impacted": 134,
    "notes": "End of exploration",
    "link": null
  },
  {
    "employer": {
      "name": "Doyon Universal Services LLC",
      "address": null
    },
    "location": {
      "street": null,
      "municipality": "Anchorage/ North Slope",
      "state": "ak",
      "zip": null
    },
    "union": null,
    "contact": null,
    "warn_date": "2013-05-10",
    "layoff_date": "2013-08-15",
    "type": null,
    "impacted": 75,
    "notes": "Loss of contract",
    "link": null
  },
  {
    "employer": {
      "name": "TriWest Healthcare Alliance Corp",
      "address": null
    },
    "location": {
      "street": null,
      "municipality": "Statewide",
      "state": "ak",
      "zip": null
    },
    "union": null,
    "contact": null,
    "warn_date": "2012-12-10",
    "layoff_date": null,
    "type": null,
    "impacted": 31,
    "notes": "Loss of contract",
    "link": null
  },
  {
    "employer": {
      "name": "CH2M Hill",
      "address": null
    },
    "location": {
      "street": null,
      "municipality": "North Slope",
      "state": "ak",
      "zip": null
    },
    "union": null,
    "contact": null,
    "warn_date": "2012-12-20",
    "layoff_date": null,
    "type": null,
    "impacted": 380,
    "notes": "Loss of contracts",
    "link": null
  },
  {
    "employer": {
      "name": "Williams Inc.",
      "address": null
    },
    "location": {
      "street": null,
      "municipality": "Juneau",
      "state": "ak",
      "zip": null
    },
    "union": null,
    "contact": null,
    "warn_date": "2012-06-30",
    "layoff_date": "2012-09-02",
    "type": "Closure",
    "impacted": 90,
    "notes": "Store closure",
    "link": null
  },
  {
    "employer": {
      "name": "Hostess Brands, Inc.",
      "address": null
    },
    "location": {
      "street": null,
      "municipality": "Statewide",
      "state": "ak",
      "zip": null
    },
    "union": null,
    "contact": null,
    "warn_date": "2012-05-04",
    "layoff_date": "2012-11-19",
    "type": "Closure",
    "impacted": 90,
    "notes": "Company closure",
    "link": null
  },
  {
    "employer": {
      "name": "United Parcel Services",
      "address": null
    },
    "location": {
      "street": null,
      "municipality": "Anchorage",
      "state": "ak",
      "zip": null
    },
    "union": null,
    "contact": null,
    "warn_date": "2010-03-15",
    "layoff_date": null,
    "type": null,
    "impacted": 109,
    "notes": "Restructuring",
    "link": null
  },
  {
    "employer": {
      "name": "NovaGold",
      "address": null
    },
    "location": {
      "street": null,
      "municipality": "Nome",
      "state": "ak",
      "zip": null
    },
    "union": null,
    "contact": null,
    "warn_date": "2008-11-26",
    "layoff_date": "2008-11-28",
    "type": null,
    "impacted": 130,
    "notes": "Lack of financing",
    "link": null
  },
  {
    "employer": {
      "name": "Agrium U.S. Inc. Kenai Nitrogen Operations",
      "address": null
    },
    "location": {
      "street": null,
      "municipality": "Kenai",
      "state": "ak",
      "zip": null
    },
    "union": null,
    "contact": null,
    "warn_date": "2007-09-26",
    "layoff_date": null,
    "type": null,
    "impacted": 140,
    "notes": "Lack of natural gas",
    "link": null
  },
  {
    "employer": {
      "name": "Arctec Services",
      "address": null
    },
    "location": {
      "street": null,
      "municipality": "Clear",
      "state": "ak",
      "zip": null
    },
    "union": null,
    "contact": null,
    "warn_date": "2006-06-20",
    "layoff_date": "2006-09-30",
    "type": null,
    "impacted": 171,
    "notes": "Loss of contract",
    "link": null
  },
  {
    "employer": {
      "name": "Chugach Alutiiq Joint Venture",
      "address": null
    },
    "location": {
      "street": null,
      "municipality": "Fort Greely",
      "state": "ak",
      "zip": null
    },
    "union": null,
    "contact": null,
    "warn_date": "2006-05-30",
    "layoff_date": "2006-06-01",
    "type": null,
    "impacted": 151,
    "notes": "Loss of contract",
    "link": null
  },
  {
    "employer": {
      "name": "First Student",
      "address": null
    },
    "location": {
      "street": null,
      "municipality": "Mat-Su",
      "state": "ak",
      "zip": null
    },
    "union": null,
    "contact": null,
    "warn_date": "2006-04-10",
    "layoff_date": "2006-06-30",
    "type": null,
    "impacted": 102,
    "notes": "Loss of contract",
    "link": null
  },
  {
    "employer": {
      "name": "Johnson's Tire Service, Inc.",
      "address": null
    },
    "location": {
      "street": null,
      "municipality": "Anchorage, Eagle River, Wasilla & Soldotna",
      "state": "ak",
      "zip": null
    },
    "union": null,
    "contact": null,
    "warn_date": "2006-02-25",
    "layoff_date": "2006-04-01",
    "type": null,
    "impacted": 100,
    "notes": "Change in ownership only",
    "link": null
  }
]